,City,Country,Max Temp,Humidity,Cloudiness,Wind Speed,Latitude,Longitude
0,Lebu,CL,50.83,84,100,11.36,-37.62,-73.65
1,Port Alfred,ZA,63.39,87,85,13.33,-33.59,26.89
2,Natal,BR,78.8,78,75,9.17,-5.79,-35.21
3,Rikitea,PF,75.6,83,100,16.42,-23.12,-134.97
4,Jaca,ES,45.0,89,36,0.96,42.57,-0.55
5,Najrān,SA,60.8,25,0,4.7,17.49,44.13
6,Kununurra,AU,87.8,62,98,3.36,-15.77,128.73
7,Punta Arenas,CL,44.6,78,0,17.22,-53.15,-70.92
8,Busselton,AU,61.0,81,0,3.0,-33.65,115.33
9,Merauke,ID,85.14,59,58,6.76,-8.47,140.33
10,Mataura,NZ,61.0,63,95,3.0,-46.19,168.86
11,Henties Bay,NA,59.0,87,97,1.01,-22.12,14.28
12,Port-Cartier,CA,28.0,79,20,6.93,50.03,-66.87
13,Bredasdorp,ZA,62.6,88,100,4.7,-34.53,20.04
14,Mongomo,GQ,69.17,99,100,3.04,1.63,11.31
15,Hermanus,ZA,60.01,92,100,1.01,-34.42,19.23
16,Kavieng,PG,84.63,66,82,2.48,-2.57,150.8
17,Kahului,US,84.2,66,40,8.05,20.89,-156.47
18,Longyearbyen,SJ,30.2,86,75,3.36,78.22,15.64
19,College,US,28.99,92,90,4.23,64.86,-147.8
20,Cape Town,ZA,61.0,87,75,10.29,-33.93,18.42
21,Pahlgām,IN,39.56,56,0,3.58,34.03,75.33
22,Bani Walid,LY,61.56,68,0,16.24,31.76,13.99
23,High Level,CA,28.4,100,90,5.82,58.52,-117.14
24,Zhigansk,RU,-6.84,91,61,2.55,66.77,123.37
25,Cherskiy,RU,14.59,93,100,8.57,68.75,161.3
26,Victor Harbor,AU,62.01,76,0,1.99,-35.57,138.62
27,Bila Krynytsya,UA,46.4,100,0,6.71,50.64,29.47
28,Preobrazheniye,RU,53.1,63,97,3.13,42.9,133.91
29,Ribeira Grande,PT,62.82,60,100,3.58,38.52,-28.7
30,Castro,BR,59.59,67,0,4.5,-24.79,-50.01
31,Mossamedes,AO,71.11,79,0,3.27,-15.2,12.15
32,Vaini,TO,77.0,73,20,12.75,-21.2,-175.2
33,Nikolskoye,RU,52.0,87,75,8.95,59.7,30.79
34,Benghazi,LY,74.57,58,76,17.31,32.12,20.07
35,Tual,ID,84.27,69,100,10.63,-5.67,132.75
36,Kaitangata,NZ,55.67,56,0,7.65,-46.28,169.85
37,Milos,GR,62.6,77,96,8.05,36.75,24.43
38,Namatanai,PG,86.67,64,16,1.61,-3.67,152.43
39,Bilibino,RU,5.25,91,100,1.77,68.05,166.44
40,Byron Bay,AU,73.4,73,75,11.41,-28.65,153.62
41,Qaanaaq,GL,12.09,81,99,12.8,77.48,-69.36
42,Popondetta,PG,92.91,46,0,5.14,-8.75,148.25
43,Avilés,ES,59.0,87,75,11.41,43.55,-5.92
44,Mananjary,MG,68.56,93,15,4.99,-21.22,48.33
45,Oranjestad,AW,84.2,74,20,10.29,12.52,-70.03
46,Bluff,NZ,59.0,68,26,7.0,-46.6,168.33
47,Erciş,TR,37.4,64,0,3.36,39.03,43.36
48,Khandyga,RU,15.62,95,100,2.42,62.67,135.6
49,Ushuaia,AR,44.6,39,75,11.41,-54.8,-68.3
50,Upernavik,GL,16.23,78,0,5.37,72.79,-56.15
51,East London,ZA,67.82,74,18,17.92,-33.02,27.91
52,Etchoropo,MX,70.0,28,0,8.01,26.77,-109.67
53,Erzin,TR,75.99,71,57,3.6,36.96,36.2
54,Nioro,GM,75.15,62,0,3.47,13.35,-15.75
55,Barrow,US,30.2,80,75,21.92,71.29,-156.79
56,Severo-Kuril'sk,RU,45.37,77,0,5.26,50.68,156.12
57,Jamestown,US,41.0,100,90,2.19,42.1,-79.24
58,Havøysund,NO,30.2,92,0,13.87,71.0,24.66
59,Kerema,PG,82.31,74,98,7.81,-7.96,145.78
60,Bang Krathum,TH,81.0,55,100,4.47,16.58,100.3
61,Atuona,PF,78.66,74,1,19.01,-9.8,-139.03
62,Sitka,US,46.4,87,75,8.05,57.05,-135.33
63,Scarborough,GB,44.01,84,1,8.01,54.28,-0.4
64,Uyemskiy,RU,44.6,93,90,6.71,64.47,40.85
65,St. George's,GD,78.8,94,20,5.82,12.06,-61.75
66,Provideniya,RU,32.0,95,90,6.71,64.38,-173.3
67,Edson,CA,44.6,65,40,14.99,53.58,-116.44
68,Kautokeino,NO,26.47,96,100,4.52,69.01,23.04
69,Hobart,AU,59.0,71,75,10.29,-42.88,147.33
70,Thompson,CA,24.8,68,75,9.17,55.74,-97.86
71,Yellowknife,CA,17.6,67,75,4.7,62.46,-114.35
72,Saint-Joseph,RE,69.8,64,0,3.36,-21.37,55.62
73,Puerto Ayora,EC,68.0,92,100,3.0,-0.74,-90.35
74,Puerto Palomas,MX,30.2,100,90,5.82,31.77,-107.62
75,Srednekolymsk,RU,14.95,90,83,7.74,67.45,153.68
76,Esperance,AU,68.0,77,92,16.11,-33.87,121.9
77,Beihai,CN,76.53,72,97,15.86,21.48,109.1
78,Volchikha,RU,31.89,92,0,12.8,52.03,80.38
79,Albany,US,48.0,76,100,1.7,42.6,-73.97
80,Khatanga,RU,-6.11,90,48,10.27,71.97,102.5
81,George Town,MY,78.8,88,20,3.36,5.41,100.34
82,Bethel,US,51.8,57,75,3.65,41.37,-73.41
83,Atar,MR,82.74,22,6,10.04,20.52,-13.05
84,Vila,PT,54.0,95,99,1.99,42.03,-8.16
85,Cidreira,BR,63.07,87,100,11.72,-30.18,-50.21
86,Pa Daet,TH,73.0,100,20,3.27,19.5,99.99
87,Sabang,ID,81.99,74,96,20.89,5.89,95.32
88,Roald,NO,46.4,75,94,5.82,62.58,6.13
89,Arraial do Cabo,BR,73.4,94,0,13.87,-22.97,-42.03
90,Pervomayskoye,RU,55.35,70,0,17.81,43.92,46.71
91,Saint Paul Harbor,US,44.6,56,1,21.92,57.79,-152.41
92,Hilo,US,80.6,74,90,9.17,19.73,-155.09
93,Hithadhoo,MV,83.93,66,85,11.01,-0.6,73.08
94,Port Elizabeth,ZA,62.6,82,0,19.46,-33.92,25.57
95,Mahébourg,MU,70.0,80,4,5.01,-20.41,57.7
96,Teya,RU,25.72,96,100,10.18,60.38,92.63
97,Matara,LK,77.07,86,71,4.76,5.95,80.54
98,Lata,PT,61.0,94,100,1.01,40.16,-8.33
99,Dikson,RU,5.61,95,100,16.98,73.51,80.55
100,Praia,CV,78.8,83,100,14.99,14.92,-23.51
101,Alyangula,AU,91.4,46,40,5.82,-13.85,136.42
102,Saskylakh,RU,5.65,93,100,11.86,71.92,114.08
103,Lompoc,US,70.0,45,1,11.41,34.64,-120.46
104,Husavik,IS,37.4,64,90,8.05,66.04,-17.34
105,Maceió,BR,77.0,83,75,5.82,-9.67,-35.74
106,Butaritari,KI,81.0,65,44,3.02,3.07,172.79
107,Saldanha,ZA,59.0,87,100,2.24,-33.01,17.94
108,Port Blair,IN,80.69,77,99,3.4,11.67,92.75
109,Mar del Plata,AR,59.0,87,0,6.93,-38.0,-57.56
110,Touros,BR,78.8,83,75,9.17,-5.2,-35.46
111,Saint-Augustin,CA,30.85,90,55,4.92,51.23,-58.65
112,Carnarvon,AU,71.6,68,0,24.16,-24.87,113.63
113,Lárdos,GR,68.0,77,20,2.24,36.09,28.02
114,Giohar,SO,76.86,85,100,5.86,2.78,45.5
115,Belmonte,BR,78.8,83,75,8.05,-15.86,-38.88
116,Mehamn,NO,35.74,83,100,7.31,71.04,27.85
117,Khovd,MN,29.91,76,2,1.68,48.01,91.64
118,Bengkulu,ID,81.0,71,93,2.26,-3.8,102.27
119,Iquique,CL,62.6,77,90,11.41,-20.22,-70.14
120,Bulungu,CD,70.92,98,100,2.51,-4.55,18.6
121,Gizo Government Station,SB,84.79,71,100,6.31,-8.1,156.84
122,Metsavan,AM,37.4,64,100,3.36,41.2,44.23
123,Safi,MA,61.74,72,0,15.79,32.3,-9.24
124,Taoudenni,ML,81.52,17,0,6.58,22.68,-3.98
125,Montepuez,MZ,67.53,95,19,2.13,-13.13,39.0
126,Saint-Philippe,RE,69.8,64,0,3.36,-21.36,55.77
127,Puerto Nariño,CO,78.8,100,75,2.24,-3.77,-70.38
128,Oddur,SO,71.53,86,79,9.89,4.12,43.89
129,São Filipe,CV,80.76,74,60,4.25,14.9,-24.5
130,Lavrentiya,RU,30.13,90,71,8.81,65.58,-171.0
131,New Norfolk,AU,59.0,63,98,1.99,-42.78,147.06
132,Yulara,AU,80.6,13,0,3.36,-25.24,130.99
133,Thunder Bay,CA,33.8,55,75,13.87,48.4,-89.32
134,Black River,JM,84.2,79,75,6.93,18.03,-77.85
135,Curitibanos,BR,54.0,91,64,1.72,-27.28,-50.58
136,Sobolevo,RU,43.14,85,0,10.85,54.43,31.9
137,Dunedin,NZ,54.0,68,37,20.0,-45.87,170.5
138,Cabo San Lucas,MX,75.2,57,40,17.22,22.89,-109.91
139,Half Moon Bay,US,77.0,48,1,11.41,37.46,-122.43
140,Adrar,MR,81.81,17,0,12.15,20.5,-10.07
141,Teruel,ES,51.01,75,0,3.36,40.67,-0.67
142,Antofagasta,CL,59.0,82,75,16.11,-23.65,-70.4
143,Torbay,CA,39.0,100,90,11.41,47.67,-52.73
144,Bathsheba,BB,82.4,83,40,16.11,13.22,-59.52
145,Shirhatti,IN,69.01,68,0,6.17,15.23,75.58
146,Cascais,PT,62.01,95,50,9.46,38.7,-9.42
147,Pevek,RU,20.07,97,100,12.33,69.7,170.31
148,Virginia Beach,US,64.99,94,0,6.29,36.85,-75.98
149,Jiwani,PK,73.58,62,0,6.93,25.05,61.74
150,Ahipara,NZ,69.55,63,22,3.44,-35.17,173.17
151,Menzel Salem,TN,42.8,81,0,2.24,35.86,8.48
152,Sampit,ID,82.85,75,86,2.35,-2.53,112.95
153,Tura,IN,69.91,87,0,3.74,25.52,90.22
154,Nísia Floresta,BR,78.8,78,75,9.17,-6.09,-35.21
155,Bara,NG,74.26,33,0,4.38,10.37,10.73
156,Vysokogornyy,RU,37.18,78,60,2.86,50.12,139.15
157,Babushkin,RU,35.53,79,0,5.14,51.71,105.86
158,Maningrida,AU,90.84,45,67,5.73,-12.07,134.27
159,Idaho Falls,US,39.2,41,75,4.7,43.47,-112.03
160,Avarua,CK,73.4,83,100,8.05,-21.21,-159.78
161,Shingū,JP,66.2,52,75,1.12,33.73,135.98
162,Labytnangi,RU,6.1,94,95,3.91,66.66,66.42
163,Robertsport,LR,80.33,83,95,8.95,6.75,-11.37
164,Klaksvík,FO,46.71,86,100,23.26,62.23,-6.59
165,Kieta,PG,87.28,62,38,3.98,-6.22,155.63
166,Beneditinos,BR,82.4,65,20,8.05,-5.45,-42.37
167,Avera,US,75.2,100,1,5.08,33.19,-82.53
168,Tsimmerbude,RU,48.2,87,0,6.71,54.67,20.13
169,Provost,CA,42.42,85,100,12.77,52.35,-110.27
170,Kulhudhuffushi,MV,82.38,74,1,6.22,6.62,73.07
171,Norsup,VU,82.4,74,75,8.05,-16.07,167.38
172,Nuuk,GL,24.01,79,8,5.99,64.18,-51.72
173,Hīt,IQ,69.03,23,0,7.56,33.64,42.83
174,Morgan City,US,80.6,83,88,6.93,29.7,-91.21
175,Karratha,AU,80.2,57,18,9.95,-20.74,116.85
176,Tortolì,IT,52.0,60,0,1.99,39.93,9.66
177,Skibbereen,IE,42.8,87,20,14.99,51.55,-9.27
178,Serebryanyy Bor,RU,10.65,93,99,5.88,56.8,124.8
179,Coyhaique,CL,41.0,86,90,4.7,-45.58,-72.07
180,Okhotsk,RU,30.78,81,0,7.02,59.38,143.3
181,Katsuura,JP,66.99,68,75,4.7,35.13,140.3
182,Kenai,US,41.0,65,1,5.82,60.55,-151.26
183,Cockburn Town,TC,82.69,80,45,21.99,21.46,-71.14
184,Abu Kamal,SY,64.02,28,0,5.35,34.45,40.92
185,Berlevåg,NO,38.98,80,100,9.6,70.86,29.09
186,Plettenberg Bay,ZA,61.18,65,100,5.61,-34.05,23.37
187,Bairnsdale,AU,64.0,77,42,3.0,-37.83,147.62
188,Honningsvåg,NO,41.43,71,100,9.1,70.98,25.97
189,Marsá Maţrūḩ,EG,70.12,71,100,3.18,31.35,27.25
190,Walvis Bay,NA,59.0,82,100,4.7,-22.96,14.51
191,Necochea,AR,59.0,76,90,8.99,-38.55,-58.74
192,Jalu,LY,70.16,43,0,10.22,29.03,21.55
193,Port Lincoln,AU,63.59,59,0,7.81,-34.73,135.87
194,Chifeng,CN,42.62,49,0,7.29,42.27,118.96
195,Vangaindrano,MG,70.43,88,17,1.14,-23.35,47.6
196,San Juan,AR,71.96,23,99,13.82,-31.54,-68.54
197,Kumul,CN,44.51,48,0,8.95,42.8,93.45
198,Kapaa,US,82.99,69,75,5.82,22.08,-159.32
199,Strathmore,CA,51.8,43,75,13.87,51.05,-113.39
200,Samarai,PG,82.98,78,2,9.78,-10.62,150.67
201,Maputo,MZ,75.2,88,40,5.82,-25.97,32.59
202,Takapau,NZ,57.99,78,100,3.0,-40.03,176.35
203,Rio Grande,BR,63.0,99,100,8.01,-32.03,-52.1
204,Severnyy,RU,41.0,75,0,8.95,50.68,36.55
205,Puławy,PL,51.01,10,2,4.97,51.42,21.97
206,Pirovskoye,RU,34.07,91,100,5.66,57.63,92.27
207,Shīeli,KZ,30.83,86,98,7.02,44.17,66.75
208,Ostrovnoy,RU,43.68,92,100,22.15,68.05,39.51
209,Gavojdia,RO,46.4,100,0,8.05,45.62,22.02
210,Tasiilaq,GL,25.45,91,100,7.43,65.61,-37.64
211,Tomatlán,MX,76.86,92,77,3.27,19.93,-105.25
212,Kananga,CD,69.57,94,100,1.5,-5.9,22.42
213,Pitimbu,BR,78.8,78,20,6.93,-7.47,-34.81
214,Acaraú,BR,78.12,82,100,10.89,-2.89,-40.12
215,Kavaratti,IN,81.59,75,88,6.64,10.57,72.64
216,Fairbanks,US,28.99,92,90,4.16,64.84,-147.72
217,Tuktoyaktuk,CA,12.2,92,90,12.75,69.45,-133.04
218,Las Vegas,US,69.8,10,1,8.05,36.17,-115.14
219,San Patricio,US,54.0,81,90,14.99,28.02,-97.52
220,Northam,GB,52.0,81,52,14.0,51.03,-4.22
221,Clyde River,CA,12.2,66,20,6.93,70.47,-68.59
222,Erenhot,CN,37.56,56,0,4.92,43.65,111.98
223,Tonekābon,IR,62.6,93,75,5.08,36.82,50.87
224,Marzuq,YE,58.71,31,1,2.82,14.4,46.47
225,Bridgton,US,41.0,61,100,2.19,44.05,-70.71
226,Fonte Boa,BR,75.85,89,100,2.17,-2.5,-66.27
227,Solnechnyy,RU,36.43,82,100,2.82,50.72,136.63
228,Kimbe,PG,90.19,56,10,4.79,-5.55,150.14
229,Grindavik,IS,39.2,55,0,24.16,63.84,-22.43
230,Awjilah,LY,70.43,40,0,11.43,29.11,21.29
231,Beringovskiy,RU,27.75,92,65,12.5,63.05,179.32
232,Kamaishi,JP,46.4,87,40,3.36,39.27,141.88
233,Serenje,ZM,64.08,55,1,5.46,-13.23,30.24
234,Kroya,ID,72.0,83,96,2.82,-7.63,109.25
235,Heze,CN,60.71,47,100,7.25,35.24,115.44
236,Hemsedal,NO,35.01,90,94,2.53,60.86,8.55
237,Goderich,CA,43.0,79,100,11.36,43.75,-81.72
238,Caramay,PH,83.73,74,99,5.66,10.18,119.24
239,Yumen,CN,38.59,67,91,5.28,40.28,97.2
240,Bandarbeyla,SO,74.7,81,21,3.4,9.49,50.81
241,Petropavlovsk-Kamchatskiy,RU,42.8,75,40,2.24,53.05,158.65
242,Umba,RU,43.41,88,100,9.86,66.69,34.34
243,Flinders,AU,66.99,74,98,1.99,-34.58,150.86
244,Ballina,AU,73.4,73,75,11.41,-28.87,153.57
245,Borzya,RU,25.12,84,6,5.06,50.38,116.52
246,Pimentel,PE,63.05,87,66,12.82,-6.84,-79.93
247,Lichinga,MZ,64.4,82,75,10.29,-13.31,35.24
248,Ponta do Sol,PT,66.2,68,75,8.05,32.67,-17.1
249,Khāsh,IR,48.07,45,0,4.43,28.22,61.22
250,Evanston,US,37.99,64,75,3.36,42.04,-87.69
251,Nanortalik,GL,30.45,90,100,3.33,60.14,-45.24
252,Icuseşti,RO,54.0,100,90,2.24,46.8,26.93
253,Schruns,AT,42.01,100,100,7.65,47.07,9.95
254,Tuatapere,NZ,59.0,68,100,7.0,-46.13,167.68
255,Ferme-Neuve,CA,24.91,95,17,3.58,46.7,-75.45
256,Nokaneng,BW,74.53,28,0,9.28,-19.67,22.27
257,Fort Nelson,CA,30.2,80,75,5.82,58.81,-122.7
258,Broome,US,46.0,75,90,1.07,42.25,-75.83
259,Wajid,SO,73.83,82,88,15.19,3.81,43.25
260,Hinton,CA,37.24,82,100,3.94,53.4,-117.59
261,Chui,UY,62.31,95,100,13.73,-33.7,-53.46
262,Xam Nua,LA,66.27,86,100,2.3,20.42,104.04
263,Dunmore Town,BS,82.35,77,0,13.56,25.5,-76.65
264,Lima,PE,63.0,82,40,13.87,-12.04,-77.03
265,Energetik,RU,30.52,90,0,3.53,51.74,58.79
266,Andenes,NO,35.6,69,100,9.17,69.31,16.12
267,Koygorodok,RU,32.43,96,87,8.25,60.45,51.0
268,Mayo,US,60.8,77,90,6.93,38.89,-76.51
269,La Ronge,CA,26.6,92,90,9.17,55.1,-105.28
270,Susaki,JP,66.2,68,75,9.17,33.37,133.28
271,Aklavik,CA,12.2,85,75,2.24,68.22,-135.01
272,Boyuibe,BO,73.96,47,0,6.22,-20.42,-63.28
273,Kalemie,CD,71.64,76,93,1.05,-5.95,29.19
274,Tabou,CI,77.81,87,100,5.5,4.42,-7.35
275,Airai,TL,72.7,72,29,3.0,-8.93,125.41
276,Durban,ZA,71.6,94,0,4.7,-29.86,31.03
277,Madison,US,71.6,83,90,3.47,34.73,-86.57
278,Nanuque,BR,75.63,90,77,7.81,-17.84,-40.35
279,Kruisfontein,ZA,57.99,95,0,6.64,-34.0,24.73
280,Severomuysk,RU,10.26,90,100,1.48,56.15,113.43
281,Namtsy,RU,3.2,84,20,2.24,62.72,129.67
282,Baykit,RU,14.27,91,100,13.87,61.67,96.37
283,Tiksi,RU,-3.21,90,2,12.73,71.69,128.87
284,Concepción del Oro,MX,67.89,27,0,9.82,24.63,-101.42
285,Pangnirtung,CA,8.56,76,0,4.21,66.15,-65.71
286,Rapid Valley,US,42.01,76,20,3.36,44.06,-103.15
287,Vallenar,CL,55.63,71,0,0.85,-28.57,-70.76
288,Hamilton,US,51.8,87,90,3.4,39.18,-84.53
289,Qingyuan,CN,80.01,60,0,6.71,23.7,113.03
290,Laguna,US,73.4,18,1,4.7,38.42,-121.42
291,Hobyo,SO,78.93,79,2,5.26,5.35,48.53
292,Dongsheng,CN,38.88,53,100,3.11,39.82,109.98
293,Morón,AR,64.0,73,19,1.99,-34.65,-58.62
294,Genhe,CN,25.3,89,0,9.13,50.78,121.52
295,Biak,ID,83.98,64,76,4.16,-0.91,122.88
296,Mousthéni,GR,61.0,75,1,3.38,40.87,24.12
297,Ushirombo,TZ,67.06,85,100,2.24,-3.49,31.96
298,Shunyi,CN,57.0,65,0,2.24,40.12,116.65
299,Seoni,IN,64.83,64,0,3.02,22.08,79.53
300,Orël-Izumrud,RU,63.0,62,0,2.24,43.46,39.92
301,Christchurch,NZ,59.0,58,66,11.41,-43.53,172.63
302,Kaabong,UG,66.76,69,1,13.49,3.48,34.15
303,Oyama,JP,66.99,72,75,3.36,36.3,139.8
304,Leh,IN,27.52,68,0,0.98,34.17,77.58
305,Dakar,SN,78.8,88,0,2.24,14.69,-17.44
306,Emerald,AU,82.99,57,4,9.17,-23.53,148.17
307,Chapais,CA,21.2,79,90,8.05,49.78,-74.85
308,Pochutla,MX,78.01,83,75,0.98,15.74,-96.47
309,New Waterford,US,46.0,88,100,1.99,40.85,-80.61
310,Beyneu,KZ,28.26,90,0,5.28,45.32,55.2
311,Maniitsoq,GL,20.7,86,0,7.2,65.42,-52.9
312,Galesong,ID,80.6,78,20,5.82,-5.32,119.37
313,Puerto Madero,MX,78.8,94,75,5.82,14.72,-92.42
314,Portland,US,57.2,50,1,1.3,45.52,-122.68
315,Brae,GB,48.2,81,0,13.87,60.4,-1.35
316,Oistins,BB,82.4,83,40,16.11,13.07,-59.53
317,Jimma,ET,53.89,81,0,0.96,7.67,36.83
318,Mersing,MY,81.61,77,100,5.14,2.43,103.84
319,Charters Towers,AU,84.07,42,0,5.39,-20.1,146.27
320,Chokurdakh,RU,12.81,97,100,3.8,70.63,147.92
321,Iqaluit,CA,19.4,73,90,8.05,63.75,-68.51
322,Mount Gambier,AU,62.6,59,0,2.24,-37.83,140.77
323,Ambulu,ID,79.66,81,100,0.65,-8.35,113.61
324,Santa Isabel,BR,75.2,78,0,3.36,-23.32,-46.22
325,Westport,US,55.4,54,90,4.7,41.14,-73.36
326,Hasaki,JP,63.0,82,75,4.7,35.73,140.83
327,Gornoye Loo,RU,63.0,62,0,2.24,43.71,39.6
328,Yerbogachën,RU,17.8,96,89,5.86,61.28,108.01
329,Caravelas,BR,77.18,90,100,10.54,-17.71,-39.25
330,Bambous Virieux,MU,70.0,80,6,5.01,-20.34,57.76
331,Picota,PE,80.8,67,80,2.73,-6.92,-76.33
332,Sepatan,ID,86.0,88,20,5.82,-6.12,106.58
333,Flin Flon,CA,26.11,98,100,5.84,54.77,-101.86
334,Lucea,JM,84.2,79,75,6.93,18.45,-78.17
335,Harper,LR,78.04,87,43,6.62,4.38,-7.72
336,Meulaboh,ID,77.59,84,82,3.98,4.14,96.13
337,Cobija,BO,73.0,91,86,1.81,-11.03,-68.77
338,Saint George,US,60.8,9,1,4.97,37.1,-113.58
339,Tezu,IN,72.82,55,14,2.44,27.92,96.17
340,La Palma,US,75.2,17,75,11.41,33.85,-118.05
341,Shelburne,CA,37.4,93,90,3.36,44.08,-80.2
342,Hong Kong,HK,77.0,76,100,3.0,22.29,114.16
343,Itoigawa,JP,55.0,89,100,2.28,37.03,137.85
344,Eatonton,US,73.0,97,20,4.61,33.33,-83.39
345,Japura,ID,79.29,82,91,2.08,-0.32,102.35
346,Dwārka,IN,79.83,64,0,10.69,22.24,68.97
347,Aquidabã,BR,72.88,91,100,10.74,-10.28,-37.02
348,Haines Junction,CA,29.95,95,100,2.26,60.75,-137.51
349,Myitkyina,MM,73.81,77,0,1.99,25.38,97.4
350,Lorengau,PG,86.32,63,77,1.88,-2.02,147.27
351,Waitati,NZ,54.0,68,70,20.0,-45.75,170.57
352,Waipawa,NZ,60.01,72,99,16.11,-41.41,175.52
353,Butka,RU,18.97,96,98,6.17,56.72,63.79
354,Finnsnes,NO,15.8,92,59,10.29,69.23,17.98
355,Moerai,PF,73.38,93,100,16.22,-22.43,-151.33
356,Mirzāpur,IN,64.4,82,0,3.36,25.15,82.58
357,Bandundu Province,CD,72.1,97,100,3.2,-3.32,17.37
358,Inongo,CD,72.36,94,100,4.27,-1.95,18.27
359,Havelock,US,66.0,93,20,4.7,34.88,-76.9
360,Yar-Sale,RU,2.1,92,0,6.42,66.83,70.83
361,Aranos,NA,74.97,34,89,13.69,-24.13,19.12
362,Inta,RU,27.63,98,100,5.79,66.03,60.17
363,Livingstone,ZM,72.41,36,21,5.46,-17.84,25.85
364,Vardø,NO,42.37,94,100,9.51,70.37,31.11
365,Coquimbo,CL,53.6,87,0,5.82,-29.95,-71.34
366,Tirur,IN,75.2,88,40,3.76,10.9,75.92
367,Nouadhibou,MR,75.2,64,100,17.22,20.93,-17.03
368,Boyolangu,ID,79.97,78,100,6.6,-8.12,111.89
369,Pacific Grove,US,73.4,16,1,8.05,36.62,-121.92
370,Pahrump,US,64.4,10,1,10.29,36.21,-115.98
371,Shirokiy,RU,35.98,79,0,7.09,49.76,129.52
372,Antalaha,MG,69.28,88,1,6.33,-14.9,50.28
373,Tagusao,PH,83.52,68,88,5.48,9.19,117.81
374,Paraná,AR,64.99,67,0,9.08,-31.73,-60.52
375,Czersk,PL,44.01,92,100,3.0,53.8,17.98
376,Ingham,US,37.0,100,90,6.29,42.6,-84.38
377,Constitución,CL,49.32,80,0,8.25,-35.33,-72.42
378,Frontera,MX,50.76,48,0,8.16,26.93,-101.45
379,Asha,RU,28.35,93,97,3.89,55.0,57.27
380,Soloneshnoye,RU,34.16,89,100,9.06,51.65,84.32
381,Cap Malheureux,MU,70.0,80,0,5.01,-19.98,57.61
382,Lamu,KE,77.67,86,32,9.15,-2.27,40.9
383,Iskateley,RU,33.91,97,100,11.23,67.68,53.15
384,Bodden Town,KY,82.99,83,20,5.82,19.28,-81.25
385,Dijkot,PK,63.79,27,0,4.38,31.22,72.98
386,Ouadda,CF,68.81,71,19,1.28,8.08,22.4
387,Rāpar,IN,76.35,39,0,6.17,23.57,70.63
388,San Cristobal,VE,67.44,92,92,1.59,7.77,-72.22
389,Naze,JP,78.8,69,40,11.41,28.37,129.48
390,Shitkino,RU,35.26,86,100,7.83,56.37,98.35
391,Togur,RU,32.47,98,100,6.58,58.36,82.83
392,Ilebo,CD,71.71,96,100,2.82,-4.32,20.58
393,Skeldon,GY,78.33,87,0,6.08,5.88,-57.13
394,Esim,GH,78.42,86,100,7.16,4.87,-2.24
395,Comodoro Rivadavia,AR,53.6,46,0,9.17,-45.87,-67.5
396,Mae Chan,TH,75.0,100,20,1.86,20.15,99.85
397,Canutama,BR,75.04,96,100,3.98,-6.53,-64.38
398,Poum,NC,77.29,73,100,14.41,-20.23,164.02
399,Kitzbühel,AT,35.01,87,18,5.37,47.45,12.39
400,Bonfim,BR,83.25,62,27,8.03,3.08,-59.95
401,Lucapa,AO,66.56,100,100,2.28,-8.42,20.74
402,Alofi,NU,78.8,69,40,19.46,-19.06,-169.92
403,Itambacuri,BR,72.59,89,0,4.94,-18.03,-41.69
404,Narsaq,GL,30.2,80,100,3.13,60.92,-46.05
405,Tautira,PF,82.4,74,75,19.46,-17.73,-149.15
406,Kiryat Gat,IL,75.0,100,100,3.38,31.61,34.76
407,Takoradze,GH,77.9,87,61,6.62,4.88,-1.76
408,Pisco,PE,63.0,82,0,19.46,-13.7,-76.22
409,Raudeberg,NO,46.0,79,76,13.4,61.99,5.14
410,San Clemente,US,69.01,54,0,5.82,33.43,-117.61
411,Forsytheganj,BY,45.14,86,0,7.14,52.63,29.73
412,Mezhdurechenskiy,RU,20.68,94,100,5.39,59.6,65.93
413,Óbidos,BR,80.89,80,100,1.36,-1.92,-55.52
414,Sprâncenata,RO,52.0,100,90,4.7,44.08,24.63
415,Malanville,BJ,75.88,27,9,2.93,11.87,3.39
416,Codrington,AU,60.91,74,98,4.72,-38.27,141.97
417,Labuhan,ID,82.45,75,100,9.4,-6.88,112.21
418,Richards Bay,ZA,73.06,80,0,15.99,-28.78,32.04
419,Vila Franca do Campo,PT,64.4,59,75,2.24,37.72,-25.43
420,Cayenne,GF,82.4,78,0,3.36,4.93,-52.33
421,Beïnamar,TD,72.79,47,13,2.84,8.67,15.38
422,Moose Factory,CA,33.8,69,90,14.99,51.26,-80.61
423,Puerto Escondido,MX,78.8,69,90,4.7,15.85,-97.07
424,Marawi,PH,82.99,77,42,3.0,8.0,124.29
425,Salinópolis,BR,80.17,84,44,11.1,-0.61,-47.36
426,Bondoukou,CI,72.68,80,22,3.53,8.03,-2.8
427,Impfondo,CG,71.49,97,100,3.33,1.64,18.07
428,Ilulissat,GL,15.8,66,86,1.12,69.22,-51.1
429,Bonavista,CA,37.99,83,100,3.0,48.65,-53.11
430,Senneterre,CA,26.6,86,75,8.05,48.38,-77.23
431,Talnakh,RU,-4.41,81,0,5.3,69.49,88.4
432,Ratnagiri,IN,77.9,78,0,5.46,16.98,73.3
433,Muli,MV,82.56,77,100,13.94,2.92,73.57
434,Mayor Pablo Lagerenza,PY,77.76,65,0,6.93,-19.93,-60.77
435,Perafita,PT,59.0,8,100,3.33,41.18,-8.25
436,Inhambane,MZ,71.82,89,2,7.11,-23.86,35.38
437,Doka,SD,74.43,41,1,0.76,13.52,35.77
438,Cuicatlan,MX,72.9,71,6,3.06,17.8,-96.97
439,Vostok,RU,34.34,98,100,1.86,46.49,135.88
440,São João da Barra,BR,74.55,90,100,14.63,-21.64,-41.05
441,Te Anau,NZ,59.05,49,100,3.22,-45.42,167.72
442,Aras,ES,51.01,93,0,1.12,42.56,-2.36
443,Tianguá,BR,68.04,92,100,8.28,-3.73,-40.99
444,Kupang,ID,86.95,63,9,6.04,-10.17,123.58
445,Guerrero Negro,MX,66.52,27,0,19.51,27.98,-114.06
446,Hvolsvollur,IS,37.0,60,0,18.01,63.75,-20.22
447,Mackay,AU,86.0,54,25,12.75,-21.15,149.2
448,Katherine,AU,89.6,46,0,5.82,-14.47,132.27
449,Olot,ES,50.0,10,6,4.38,42.18,2.49
450,Agüimes,ES,71.6,60,75,16.11,27.91,-15.45
451,Tevaitoa,PF,80.51,81,14,19.73,-16.78,-151.5
452,Peniche,PT,62.01,88,99,11.01,39.36,-9.38
453,Pierre,US,35.01,59,1,18.34,44.37,-100.35
454,Salto,UY,58.73,63,0,5.7,-31.38,-57.97
455,Warri,NG,76.21,93,94,2.08,5.52,5.75
456,Sisimiut,GL,18.7,87,0,8.72,66.94,-53.67
457,Khrebtovaya,RU,28.99,99,100,3.15,56.7,104.25
458,Korla,CN,39.0,93,0,4.72,41.76,86.15
459,Port Hardy,CA,48.2,93,90,6.93,50.7,-127.42
460,Assiut,EG,68.0,77,0,5.82,27.18,31.18
461,Umm Kaddadah,SD,81.12,21,0,15.48,13.6,26.69
462,Rūdbār,AF,55.08,36,0,9.01,30.15,62.6
463,Auray,FR,55.99,93,0,4.7,47.67,-2.99
464,Salalah,OM,77.0,53,20,2.24,17.02,54.09
465,Havre-St-Pierre,CA,30.2,74,1,11.41,50.23,-63.6
466,Dingle,PH,83.52,76,41,2.13,11.0,122.67
467,Healdsburg,US,84.0,19,1,8.05,38.61,-122.87
468,Kirkland Lake,CA,28.4,86,40,9.17,48.14,-80.04
469,Hualmay,PE,63.48,86,98,7.78,-11.1,-77.61
470,Manokwari,ID,84.94,65,88,2.91,-0.87,134.08
471,Sorong,ID,82.81,77,46,4.25,-0.88,131.25
472,Kiama,AU,66.99,73,97,4.0,-34.68,150.87
473,Codajás,BR,75.18,96,100,2.17,-3.84,-62.06
474,Leningradskiy,RU,19.2,91,0,18.66,69.38,178.42
475,Marsh Harbour,BS,81.36,80,92,12.86,26.54,-77.06
476,Florenville,BE,51.01,98,100,4.0,49.7,5.31
477,Great Falls,US,41.0,60,1,20.8,47.5,-111.3
478,Darhan,MN,32.34,84,0,5.99,49.49,105.92
479,Ambon City,ID,83.79,71,62,2.66,-3.7,128.18
480,Vestmanna,FO,44.4,90,100,19.82,62.16,-7.17
481,Selikhino,RU,39.67,71,98,3.69,50.37,137.5
482,Arrondissement de Pontarlier,FR,50.0,90,100,1.99,46.83,6.25
483,Faanui,PF,79.81,82,100,19.57,-16.48,-151.75
484,Ayagoz,KZ,32.2,78,0,16.28,47.97,80.44
485,Grootfontein,NA,72.46,23,100,9.33,-19.57,18.12
486,Bonito,BR,70.34,75,0,1.83,-21.12,-56.48
487,Atambua,ID,84.42,59,96,0.74,-9.11,124.89
488,Marathon,US,30.2,50,1,4.7,44.9,-89.77
489,Piste,MX,74.71,98,84,2.68,20.7,-88.58
490,Sørland,NO,46.74,66,100,8.03,67.67,12.69
491,Hearst,CA,28.2,91,98,12.01,49.68,-83.67
492,Taltal,CL,58.24,75,0,5.32,-25.4,-70.48
493,Yenangyaung,MM,78.64,85,81,4.12,20.47,94.88
494,Los Llanos de Aridane,ES,71.6,64,90,9.17,28.66,-17.92
495,Oranjemund,NA,55.9,91,12,2.71,-28.55,16.43
496,Murray Bridge,AU,69.01,61,0,2.86,-35.12,139.27
497,Nome,US,34.0,86,90,6.93,64.5,-165.41
498,Yanam,IN,75.78,70,95,3.09,16.73,82.22
499,Ocós,GT,82.4,94,75,5.82,14.51,-92.19
500,Bambanglipuro,ID,81.84,74,72,7.96,-7.95,110.28
501,Belyy Yar,RU,26.6,100,77,2.24,53.6,91.39
502,Magdagachi,RU,27.88,98,94,6.44,53.45,125.8
503,Wanning,CN,78.24,90,100,21.81,18.8,110.4
504,Port Hedland,AU,80.6,65,75,2.24,-20.32,118.57
505,Ulaangom,MN,24.15,91,64,2.3,49.98,92.07
506,Rabo de Peixe,PT,64.4,59,75,2.24,37.8,-25.58
507,Kendari,ID,87.01,59,19,3.49,-3.94,122.5
508,West Bay,KY,82.99,83,20,5.82,19.37,-81.42
509,Xingyi,CN,59.22,94,93,2.95,24.19,102.82
510,Eyl,SO,76.12,69,0,5.26,7.98,49.82
511,Griffith,US,37.99,93,90,3.36,41.53,-87.42
512,Geraldton,AU,69.8,56,90,17.22,-28.77,114.6
513,Acapulco de Juárez,MX,84.2,79,75,4.7,16.86,-99.89
514,Kailua,US,80.6,74,75,3.36,21.4,-157.74
515,Sola,VU,80.33,77,0,16.71,-13.88,167.55
516,Cape Girardeau,US,45.0,93,90,4.7,37.38,-89.72
517,Horsham,GB,50.0,87,0,6.93,51.06,-0.33
518,Muros,ES,57.99,90,100,8.21,42.78,-9.06
519,Fatehpur,IN,69.01,34,0,2.48,25.93,80.8
520,Bafra,TR,53.6,93,40,3.36,41.57,35.91
521,Norman Wells,CA,15.8,85,20,5.82,65.28,-126.83
522,Kanniyākumāri,IN,80.37,74,72,5.7,8.08,77.57
523,Trabzon Province,TR,66.2,93,75,5.82,40.92,39.83
524,Santo Antônio de Jesus,BR,72.57,95,95,3.62,-12.97,-39.26
525,Arica,CL,57.34,85,4,2.13,-18.48,-70.3
526,Vila Velha,BR,77.0,88,75,11.41,-20.33,-40.29
527,Newberry,US,66.99,93,1,4.7,34.27,-81.62
528,Khani,GE,68.0,49,0,29.97,41.96,42.96
529,Takhli,TH,79.0,89,100,4.72,15.26,100.34
530,Tevriz,RU,19.63,94,100,13.27,57.51,72.4
531,Malanje,AO,66.83,97,100,7.87,-9.54,16.34
532,Verkhnyaya Inta,RU,26.94,98,100,6.02,65.98,60.31
533,Gubkinskiy,RU,2.77,91,0,15.82,64.43,76.5
534,Cam Ranh,VN,77.0,100,90,1.12,11.92,109.16
535,Sur,OM,70.57,65,0,1.79,22.57,59.53
536,Souillac,MU,70.0,80,6,1.99,-20.52,57.52
537,Poya,NC,83.12,48,100,4.7,-21.35,165.15
538,Gryazovets,RU,41.07,92,66,12.33,58.88,40.25
539,Kirkwood,US,41.0,86,90,6.93,38.58,-90.41
540,Nelson Bay,AU,66.0,72,90,8.05,-32.72,152.15
541,Alugan,PH,85.12,68,0,2.73,12.22,125.48
542,Grass Valley,US,69.8,21,1,4.7,39.22,-121.06
543,Daru,PG,77.11,91,100,6.98,-9.08,143.21
544,Wamba,NG,72.41,53,0,4.03,8.93,8.6
545,Hajdúnánás,HU,46.4,93,0,1.12,47.85,21.43
546,Mahabalipuram,IN,78.8,88,40,3.36,12.63,80.17
547,Sioux Lookout,CA,26.6,92,90,9.17,50.1,-91.92
548,Paamiut,GL,27.88,84,100,17.58,61.99,-49.67
549,Bayan,CN,37.0,48,0,9.91,46.08,127.4
550,Choix,MX,64.89,26,0,2.75,26.71,-108.32
551,Teófilo Otoni,BR,72.32,91,0,3.0,-17.86,-41.51
552,Kampot,KH,82.4,78,40,10.29,10.62,104.18
553,Padang,ID,82.54,65,30,2.01,-0.95,100.35
554,Malgrat de Mar,ES,57.0,70,0,1.01,41.65,2.74
555,Biscarrosse,FR,57.2,93,75,8.05,44.39,-1.17
556,Paragominas,BR,75.78,88,100,3.38,-2.97,-47.48
557,Makakilo City,US,82.4,69,1,3.36,21.35,-158.09
558,Amahai,ID,84.74,68,86,1.72,-3.33,128.92
559,Gambēla,ET,70.3,77,0,3.62,8.25,34.58
560,Tuban,ID,82.56,74,100,11.74,-6.9,112.06
561,Piteå,SE,39.2,100,100,3.36,65.32,21.48
562,Mamoudzou,YT,75.2,88,0,4.7,-12.78,45.23
563,Shenjiamen,CN,67.42,73,1,10.76,29.96,122.3
564,Puerto Baquerizo Moreno,EC,67.98,87,100,9.69,-0.9,-89.6
565,Ambovombe,MG,70.29,90,26,14.9,-25.17,46.08
566,Nieuw Amsterdam,SR,82.4,78,75,6.93,5.88,-55.08
567,Asău,RO,50.0,98,58,1.54,46.43,26.4
568,Lüderitz,NA,56.68,79,0,10.51,-26.65,15.16
569,Birin,NP,55.72,91,0,4.14,26.89,88.07
570,Soc Trang,VN,80.6,94,90,6.93,9.6,105.98
571,San Jerónimo,PE,53.06,66,100,4.56,-11.95,-75.28
572,Baishishan,CN,37.36,63,0,8.77,43.58,127.57
573,Thung Song,TH,77.32,84,98,3.83,8.16,99.68
574,Agbor,NG,73.49,96,100,2.86,6.25,6.19
575,Shimoda,JP,64.4,77,75,9.17,34.67,138.95
576,Independence,US,34.0,80,90,1.74,39.09,-94.42
577,Angra dos Reis,BR,73.4,83,0,5.82,-23.01,-44.32
578,Rubtsovsk,RU,33.78,82,54,13.58,51.5,81.25
579,Saquena,PE,76.98,90,100,1.16,-4.67,-73.52
580,Ancud,CL,48.0,93,90,12.75,-41.87,-73.82
581,Olinda,BR,80.6,69,75,9.17,-8.01,-34.86
582,Usinsk,RU,29.05,98,100,15.12,65.99,57.53
583,Jumla,NP,42.75,50,0,4.94,29.27,82.18
584,Boguchany,RU,30.69,97,100,7.76,58.38,97.45
585,Zemio,CF,70.2,95,100,3.13,5.03,25.14
586,Bereket,TM,46.78,52,0,13.24,39.24,55.52
587,Itarema,BR,78.22,81,100,11.14,-2.92,-39.92
588,Lázaro Cárdenas,MX,80.67,85,36,7.56,17.96,-102.2
589,Bodø,NO,42.01,80,0,10.29,67.28,14.4
590,Maragogi,BR,76.51,81,89,10.29,-9.01,-35.22
